{
  "type": "FeatureCollection",
  "features": [
    {"type":"Feature","properties":{"full_name":"Batiquitos Receiver Site","name":"B"},"geometry":{"type":"Point","coordinates":[-117.3123154652079,33.08541624400674]}},{"type":"Feature","properties":{"full_name":"Leucadia Receiver Site","name":"L"},"geometry":{"type":"Point","coordinates":[-117.3099816931311,33.07569443349961]}},{"type":"Feature","properties":{"full_name":"South Carlsbad Receiver Site","name":"SC"},"geometry":{"type":"Point","coordinates":[-117.3290745560296,33.12311360316661]}},{"type":"Feature","properties":{"full_name":"Cardiff Receiver Site","name":"C"},"geometry":{"type":"Point","coordinates":[-117.2808917565144,33.01455663265963]}},{"type":"Feature","properties":{"full_name":"Moonlight Receiver Site","name":"M"},"geometry":{"type":"Point","coordinates":[-117.2985090256962,33.04786460968361]}},{"type":"Feature","properties":{"full_name":"Oceanside Receiver Site","name":"O"},"geometry":{"type":"Point","coordinates":[-117.3724702538691,33.18051192763115]}},{"type":"Feature","properties":{"full_name":"Del Mar Receiver Site","name":"DM"},"geometry":{"type":"Point","coordinates":[-117.2684185932984,32.96262306182888]}},{"type":"Feature","properties":{"full_name":"Mission Beach Receiver Site","name":"MB"},"geometry":{"type":"Point","coordinates":[-117.2534756565598,32.77844365734558]}},{"type":"Feature","properties":{"full_name":"Fletcher Cove Receiver Site","name":"FC"},"geometry":{"type":"Point","coordinates":[-117.274695287664,32.99113903757527]}},{"type":"Feature","properties":{"full_name":"Torrey Pines Receiver Site","name":"TP"},"geometry":{"type":"Point","coordinates":[-117.2601602587647,32.92961970682924]}},{"type":"Feature","properties":{"full_name":"North Carlsbad Receiver Site","name":"NC"},"geometry":{"type":"Point","coordinates":[-117.3515965066543,33.15515268709798]}},{"type":"Feature","properties":{"full_name":"Imperial Beach Receiver Site","name":"IB"},"geometry":{"type":"Point","coordinates":[-117.1328564838625,32.57109095756593]}}]
}